{
"type": "FeatureCollection",
"name": "permaculture",
"crs": { "type": "name", "properties": { "name": "urn:ogc:def:crs:OGC:1.3:CRS84" } },
"features": [
{ "type": "Feature", "properties": { "Name": "Esha Safari", "description": "<div>A member of Timboni Environmental Group<br></div>", "timestamp": null, "begin": null, "end": null, "altitudeMode": null, "tessellate": -1, "extrude": 0, "visibility": -1, "drawOrder": null, "icon": null }, "geometry": { "type": "Point", "coordinates": [ 39.832178279224543, -3.772548295549937, 10.24345773721147 ] } },
{ "type": "Feature", "properties": { "Name": "Mercyline Tabu", "description": "<div>A member of Timboni Environmental Group<br></div>", "timestamp": null, "begin": null, "end": null, "altitudeMode": null, "tessellate": -1, "extrude": 0, "visibility": -1, "drawOrder": null, "icon": null }, "geometry": { "type": "Point", "coordinates": [ 39.8322786947381, -3.772830387732721, 10.058387789282611 ] } },
{ "type": "Feature", "properties": { "Name": "Veronica Nzai", "description": "<div>A member of Timboni Environmental Group<br></div>", "timestamp": null, "begin": null, "end": null, "altitudeMode": null, "tessellate": -1, "extrude": 0, "visibility": -1, "drawOrder": null, "icon": null }, "geometry": { "type": "Point", "coordinates": [ 39.832292730764813, -3.776230365450882, 9.641160102056443 ] } },
{ "type": "Feature", "properties": { "Name": "Mwanaharusi Abdalla", "description": "<div>A member of Timboni Environmental Group<br></div>", "timestamp": null, "begin": null, "end": null, "altitudeMode": null, "tessellate": -1, "extrude": 0, "visibility": -1, "drawOrder": null, "icon": null }, "geometry": { "type": "Point", "coordinates": [ 39.832519053715167, -3.776284609864268, 8.603150914383676 ] } },
{ "type": "Feature", "properties": { "Name": "Ras Kalama Ngala", "description": "<div>An independent farmer from Mwanamia Village and a member of Century Youth group.<br></div>", "timestamp": null, "begin": null, "end": null, "altitudeMode": null, "tessellate": -1, "extrude": 0, "visibility": -1, "drawOrder": null, "icon": null }, "geometry": { "type": "Point", "coordinates": [ 39.83244409127343, -3.775761469419237, 8.572841233560952 ] } },
{ "type": "Feature", "properties": { "Name": "Ronald Katana", "description": "<div>Member of Timboni Environmental Group<br></div>", "timestamp": null, "begin": null, "end": null, "altitudeMode": null, "tessellate": -1, "extrude": 0, "visibility": -1, "drawOrder": null, "icon": null }, "geometry": { "type": "Point", "coordinates": [ 39.826050722760833, -3.779059839831489, 23.750699077790109 ] } },
{ "type": "Feature", "properties": { "Name": "Salama Jefwa", "description": "<div>Member of Timboni Environmental Group<br></div>", "timestamp": null, "begin": null, "end": null, "altitudeMode": null, "tessellate": -1, "extrude": 0, "visibility": -1, "drawOrder": null, "icon": null }, "geometry": { "type": "Point", "coordinates": [ 39.825988165134987, -3.779013950835187, 23.81121604011124 ] } },
{ "type": "Feature", "properties": { "Name": "Joyce Chai", "description": "<div>Member of Timboni Environmental Group<br></div>", "timestamp": null, "begin": null, "end": null, "altitudeMode": null, "tessellate": -1, "extrude": 0, "visibility": -1, "drawOrder": null, "icon": null }, "geometry": { "type": "Point", "coordinates": [ 39.825009683062618, -3.779018118595621, 25.126883682801989 ] } },
{ "type": "Feature", "properties": { "Name": "Florence Bosco", "description": "<div>Member of Timboni Environmental Group<br></div>", "timestamp": null, "begin": null, "end": null, "altitudeMode": null, "tessellate": -1, "extrude": 0, "visibility": -1, "drawOrder": null, "icon": null }, "geometry": { "type": "Point", "coordinates": [ 39.824451381090327, -3.778738663497002, 25.521868849015799 ] } },
{ "type": "Feature", "properties": { "Name": "Mariage Ali", "description": "<div>Member of Timboni Environmental Group</div>", "timestamp": null, "begin": null, "end": null, "altitudeMode": null, "tessellate": -1, "extrude": 0, "visibility": -1, "drawOrder": null, "icon": null }, "geometry": { "type": "Point", "coordinates": [ 39.824143841098987, -3.778578691836791, 25.211847332634349 ] } },
{ "type": "Feature", "properties": { "Name": "Harusi Kadenge", "description": "<div>Member of Timboni Environmental Group<br></div>", "timestamp": null, "begin": null, "end": null, "altitudeMode": null, "tessellate": -1, "extrude": 0, "visibility": -1, "drawOrder": null, "icon": null }, "geometry": { "type": "Point", "coordinates": [ 39.823801920611793, -3.778891327844656, 24.383048926344699 ] } },
{ "type": "Feature", "properties": { "Name": "Timboni Environmental Group", "description": "<div>Group Demonstration Plot</div>", "timestamp": null, "begin": null, "end": null, "altitudeMode": null, "tessellate": -1, "extrude": 0, "visibility": -1, "drawOrder": null, "icon": null }, "geometry": { "type": "Point", "coordinates": [ 39.823727194808768, -3.779070046686211, 24.30260275670728 ] } },
{ "type": "Feature", "properties": { "Name": "Hamisi Katana Katzungu", "description": "<div>Member of Timboni Environmental Group</div>", "timestamp": null, "begin": null, "end": null, "altitudeMode": null, "tessellate": -1, "extrude": 0, "visibility": -1, "drawOrder": null, "icon": null }, "geometry": { "type": "Point", "coordinates": [ 39.824192736127699, -3.779658811587611, 25.59051327194992 ] } },
{ "type": "Feature", "properties": { "Name": "Augustus Mzungu", "description": "<div>Member of Timboni Environmental Group<br></div>", "timestamp": null, "begin": null, "end": null, "altitudeMode": null, "tessellate": -1, "extrude": 0, "visibility": -1, "drawOrder": null, "icon": null }, "geometry": { "type": "Point", "coordinates": [ 39.824205613917137, -3.779930220985903, 26.144614984865161 ] } },
{ "type": "Feature", "properties": { "Name": "Irine Kitsau", "description": "<div>Member of Timboni Environmental Group<br></div>", "timestamp": null, "begin": null, "end": null, "altitudeMode": null, "tessellate": -1, "extrude": 0, "visibility": -1, "drawOrder": null, "icon": null }, "geometry": { "type": "Point", "coordinates": [ 39.823919949754071, -3.780028878052282, 25.51986143747477 ] } },
{ "type": "Feature", "properties": { "Name": "Zingo Juma", "description": "<div>Member of Timboni Environmental Group<br></div>", "timestamp": null, "begin": null, "end": null, "altitudeMode": null, "tessellate": -1, "extrude": 0, "visibility": -1, "drawOrder": null, "icon": null }, "geometry": { "type": "Point", "coordinates": [ 39.824958276329554, -3.779785994671899, 26.208623450800982 ] } },
{ "type": "Feature", "properties": { "Name": "Zingo Juma nÂ°2", "description": "<div>Member of Timboni Environmental Group<br></div><div>Her second garden</div>", "timestamp": null, "begin": null, "end": null, "altitudeMode": null, "tessellate": -1, "extrude": 0, "visibility": -1, "drawOrder": null, "icon": null }, "geometry": { "type": "Point", "coordinates": [ 39.824948161071902, -3.779808408224446, 26.20862223703265 ] } },
{ "type": "Feature", "properties": { "Name": "Mariam Juma", "description": "<div>Member of Timboni Environmental Group<br></div>", "timestamp": null, "begin": null, "end": null, "altitudeMode": null, "tessellate": -1, "extrude": 0, "visibility": -1, "drawOrder": null, "icon": null }, "geometry": { "type": "Point", "coordinates": [ 39.824808252090598, -3.779972590703337, 26.901212116337891 ] } },
{ "type": "Feature", "properties": { "Name": "Mwanaisha Abdalla", "description": "<div>Member of Timboni Environmental Group</div>", "timestamp": null, "begin": null, "end": null, "altitudeMode": null, "tessellate": -1, "extrude": 0, "visibility": -1, "drawOrder": null, "icon": null }, "geometry": { "type": "Point", "coordinates": [ 39.824386635609329, -3.78012567374908, 26.153063562176708 ] } },
{ "type": "Feature", "properties": { "Name": "Priscilla Mwambela", "description": "<div><b></b>Member of Timboni Environmental Group<br></div>", "timestamp": null, "begin": null, "end": null, "altitudeMode": null, "tessellate": -1, "extrude": 0, "visibility": -1, "drawOrder": null, "icon": null }, "geometry": { "type": "Point", "coordinates": [ 39.824301140860491, -3.780159519497066, 26.14467901326633 ] } },
{ "type": "Feature", "properties": { "Name": "Oceans alive demonstration garden", "description": null, "timestamp": null, "begin": null, "end": null, "altitudeMode": null, "tessellate": -1, "extrude": 0, "visibility": -1, "drawOrder": null, "icon": null }, "geometry": { "type": "Point", "coordinates": [ 39.832851590992021, -3.803029020096917, 12.523168023754099 ] } },
{ "type": "Feature", "properties": { "Name": "Jumwa Kadenge", "description": "<div>Member of Naimani Women Group<br></div>", "timestamp": null, "begin": null, "end": null, "altitudeMode": null, "tessellate": -1, "extrude": 0, "visibility": -1, "drawOrder": null, "icon": null }, "geometry": { "type": "Point", "coordinates": [ 39.81253610853777, -3.815716858142063, 30.764668404024391 ] } },
{ "type": "Feature", "properties": { "Name": "Margaret Katana", "description": "<div>Member of Kuruwitu Women Group<br></div>", "timestamp": null, "begin": null, "end": null, "altitudeMode": null, "tessellate": -1, "extrude": 0, "visibility": -1, "drawOrder": null, "icon": null }, "geometry": { "type": "Point", "coordinates": [ 39.812511081215114, -3.815870684735486, 30.33288811413712 ] } },
{ "type": "Feature", "properties": { "Name": "Dhahabu Charo", "description": "<div>Lead Famer of Naimani Women Group<br></div>", "timestamp": null, "begin": null, "end": null, "altitudeMode": null, "tessellate": -1, "extrude": 0, "visibility": -1, "drawOrder": null, "icon": null }, "geometry": { "type": "Point", "coordinates": [ 39.812597281767012, -3.817246459360415, 26.672237246814191 ] } },
{ "type": "Feature", "properties": { "Name": "Beatrice Shida", "description": "<div>Lead Farmer Naimani Women Group<br></div>", "timestamp": null, "begin": null, "end": null, "altitudeMode": null, "tessellate": -1, "extrude": 0, "visibility": -1, "drawOrder": null, "icon": null }, "geometry": { "type": "Point", "coordinates": [ 39.814391318021528, -3.816593076375286, 25.555311455450418 ] } },
{ "type": "Feature", "properties": { "Name": "Saumu Mwanguma", "description": "<div>Member of Naimani Women Group<br></div>", "timestamp": null, "begin": null, "end": null, "altitudeMode": null, "tessellate": -1, "extrude": 0, "visibility": -1, "drawOrder": null, "icon": null }, "geometry": { "type": "Point", "coordinates": [ 39.814263647041457, -3.817092926403571, 24.438038295757771 ] } },
{ "type": "Feature", "properties": { "Name": "Millicent Nafula", "description": "<div>Member of Naimani Women Group</div>", "timestamp": null, "begin": null, "end": null, "altitudeMode": null, "tessellate": -1, "extrude": 0, "visibility": -1, "drawOrder": null, "icon": null }, "geometry": { "type": "Point", "coordinates": [ 39.814393860066062, -3.817323570420333, 23.11033553181743 ] } },
{ "type": "Feature", "properties": { "Name": "Isinina Mohamed", "description": "<div>Isinina Mohamed<br></div>", "timestamp": null, "begin": null, "end": null, "altitudeMode": null, "tessellate": -1, "extrude": 0, "visibility": -1, "drawOrder": null, "icon": null }, "geometry": { "type": "Point", "coordinates": [ 39.814563275657207, -3.817523619139601, 21.55878873048373 ] } },
{ "type": "Feature", "properties": { "Name": "Jesca Mgala Ntengo", "description": "<div>Member of Naimani Women Group<br></div>", "timestamp": null, "begin": null, "end": null, "altitudeMode": null, "tessellate": -1, "extrude": 0, "visibility": -1, "drawOrder": null, "icon": null }, "geometry": { "type": "Point", "coordinates": [ 39.813793117840412, -3.817694570094949, 24.03784508024544 ] } },
{ "type": "Feature", "properties": { "Name": "Kadzo Tom", "description": "<div>Member of Naimani Women Group</div>", "timestamp": null, "begin": null, "end": null, "altitudeMode": null, "tessellate": -1, "extrude": 0, "visibility": -1, "drawOrder": null, "icon": null }, "geometry": { "type": "Point", "coordinates": [ 39.812355671655553, -3.817406316204226, 26.679530975905681 ] } },
{ "type": "Feature", "properties": { "Name": "Umazi Tunje", "description": "<div>Member of&nbsp; Inuka Widows Women Group<br></div>", "timestamp": null, "begin": null, "end": null, "altitudeMode": null, "tessellate": -1, "extrude": 0, "visibility": -1, "drawOrder": null, "icon": null }, "geometry": { "type": "Point", "coordinates": [ 39.809707359947097, -3.826131371000675, 26.517711998075779 ] } },
{ "type": "Feature", "properties": { "Name": "Marina Washe", "description": "<div>Member of Inuka Widows Women Group<br></div>", "timestamp": null, "begin": null, "end": null, "altitudeMode": null, "tessellate": -1, "extrude": 0, "visibility": -1, "drawOrder": null, "icon": null }, "geometry": { "type": "Point", "coordinates": [ 39.811009706163311, -3.82757127518044, 26.697126416539369 ] } },
{ "type": "Feature", "properties": { "Name": "Rehema Bakari", "description": "<div>Member of Inuka Widows Women Group<br></div>", "timestamp": null, "begin": null, "end": null, "altitudeMode": null, "tessellate": -1, "extrude": 0, "visibility": -1, "drawOrder": null, "icon": null }, "geometry": { "type": "Point", "coordinates": [ 39.809469396472338, -3.827717177926098, 30.370101052800411 ] } },
{ "type": "Feature", "properties": { "Name": "Inuka Women group Demonstration Garden", "description": null, "timestamp": null, "begin": null, "end": null, "altitudeMode": null, "tessellate": -1, "extrude": 0, "visibility": -1, "drawOrder": null, "icon": null }, "geometry": { "type": "Point", "coordinates": [ 39.809441119726209, -3.827696034303933, 30.381143706246359 ] } },
{ "type": "Feature", "properties": { "Name": "Rita Washe", "description": "<div>Member of Inuka Widows Women Group<br></div>", "timestamp": null, "begin": null, "end": null, "altitudeMode": null, "tessellate": -1, "extrude": 0, "visibility": -1, "drawOrder": null, "icon": null }, "geometry": { "type": "Point", "coordinates": [ 39.80935467049774, -3.827818933708081, 30.381133984782561 ] } },
{ "type": "Feature", "properties": { "Name": "Patience Chome", "description": "<div>Member of Bandavilla Women Group<br></div>", "timestamp": null, "begin": null, "end": null, "altitudeMode": null, "tessellate": -1, "extrude": 0, "visibility": -1, "drawOrder": null, "icon": null }, "geometry": { "type": "Point", "coordinates": [ 39.807927447932983, -3.832513206018557, 28.229184348163759 ] } },
{ "type": "Feature", "properties": { "Name": "Gladys Chome", "description": "<div>Member of Bandavilla Women Group<br></div>", "timestamp": null, "begin": null, "end": null, "altitudeMode": null, "tessellate": -1, "extrude": 0, "visibility": -1, "drawOrder": null, "icon": null }, "geometry": { "type": "Point", "coordinates": [ 39.80733919526255, -3.832646661859418, 28.147679998889942 ] } },
{ "type": "Feature", "properties": { "Name": "Sylvie Mutela", "description": "<div>Member of Bandavilla Women Group<br></div>", "timestamp": null, "begin": null, "end": null, "altitudeMode": null, "tessellate": -1, "extrude": 0, "visibility": -1, "drawOrder": null, "icon": null }, "geometry": { "type": "Point", "coordinates": [ 39.807755722074248, -3.833040955001492, 28.351502103008428 ] } },
{ "type": "Feature", "properties": { "Name": "Banda Villa Women Group Demonstration Garden", "description": "<div>Demonstration Garden in Bureni Village<br></div>", "timestamp": null, "begin": null, "end": null, "altitudeMode": null, "tessellate": -1, "extrude": 0, "visibility": -1, "drawOrder": null, "icon": null }, "geometry": { "type": "Point", "coordinates": [ 39.807116903364602, -3.833409051411308, 27.355073131070888 ] } }
]
}
